,City,Lat,Lng,Max Temp,Humidity,Cloudiness,Wind Speed,Country,Date
0,bethel,41.37,-73.41,69.8,77,75,4.7,US,1596853639
1,tasiilaq,65.61,-37.64,44.6,75,21,18.34,GL,1596853639
2,te anau,-45.42,167.72,45.39,63,5,1.1,NZ,1596853423
3,east london,-33.02,27.91,54.1,69,49,9.31,ZA,1596853639
4,grand gaube,-20.01,57.66,64.4,88,40,3.36,MU,1596853639
5,albany,42.6,-73.97,73.0,83,100,4.25,US,1596853639
6,smithers,54.78,-127.17,59.0,62,75,4.7,CA,1596853639
7,ahipara,-35.17,173.17,56.57,78,69,19.33,NZ,1596853613
8,ushuaia,-54.8,-68.3,37.4,74,75,4.52,AR,1596853426
9,hilo,19.73,-155.09,78.8,83,90,6.93,US,1596853640
10,mar del plata,-38.0,-57.56,48.0,100,0,7.11,AR,1596853405
11,puerto ayora,-0.74,-90.35,66.99,90,99,4.0,EC,1596853414
12,port alfred,-33.59,26.89,54.5,69,45,8.25,ZA,1596853641
13,camana,-16.62,-72.71,58.91,76,0,5.73,PE,1596853641
14,pevek,69.7,170.31,38.44,96,100,11.81,RU,1596853412
15,kapaa,22.08,-159.32,84.2,74,90,12.75,US,1596853641
16,elk plain,47.05,-122.4,75.0,40,75,4.56,US,1596853641
17,nanortalik,60.14,-45.24,45.52,90,100,3.36,GL,1596853641
18,flinders,-34.58,150.86,60.01,96,75,5.01,AU,1596853562
19,lebu,-37.62,-73.65,47.7,88,100,6.55,CL,1596853641
20,mount isa,-20.73,139.5,66.2,37,0,10.29,AU,1596853641
21,tirschenreuth,49.88,12.33,62.01,89,0,2.48,DE,1596853641
22,butaritari,3.07,172.79,84.18,73,11,18.03,KI,1596853641
23,goure,13.98,10.27,73.0,91,92,1.01,NE,1596853641
24,hithadhoo,-0.6,73.08,82.62,79,49,11.61,MV,1596853421
25,nishihara,26.18,127.76,89.6,66,40,12.75,JP,1596853642
26,beringovskiy,63.05,179.32,49.89,89,100,11.72,RU,1596853642
27,khatanga,71.97,102.5,56.88,80,100,17.22,RU,1596853642
28,westfield,42.13,-72.75,75.2,73,75,2.24,US,1596853502
29,emba,48.83,58.14,70.79,50,36,4.25,KZ,1596853642
30,inirida,3.87,-67.92,71.22,92,9,1.43,CO,1596853642
31,vardo,70.37,31.11,52.43,86,91,6.76,NO,1596853426
32,sibu,2.3,111.82,86.0,74,20,2.24,MY,1596853642
33,leh,34.17,77.58,66.96,35,21,5.06,IN,1596853469
34,hermanus,-34.42,19.23,53.01,43,8,1.99,ZA,1596853554
35,nikolskoye,59.7,30.79,57.0,100,40,6.71,RU,1596853642
36,nova olinda do norte,-3.89,-59.09,77.9,55,7,1.81,BR,1596853524
37,mataura,-46.19,168.86,48.0,88,91,5.99,NZ,1596853642
38,kampene,-3.6,26.67,69.69,68,0,1.45,CD,1596853643
39,saldanha,-33.01,17.94,42.8,75,99,2.24,ZA,1596853643
40,nha trang,12.25,109.18,87.8,74,20,1.12,VN,1596853643
41,mazamari,-11.33,-74.53,69.33,60,0,1.92,PE,1596853643
42,chokurdakh,70.63,147.92,52.14,81,100,11.92,RU,1596853643
43,castro,-24.79,-50.01,53.4,70,8,2.64,BR,1596853643
44,fortuna,40.6,-124.16,64.0,72,0,1.01,US,1596853468
45,bluff,-46.6,168.33,48.0,88,95,5.99,NZ,1596853643
46,yulara,-25.24,130.99,53.6,58,0,1.12,AU,1596853573
47,dikson,73.51,80.55,45.03,99,99,17.07,RU,1596853407
48,hobart,-42.88,147.33,52.0,57,20,8.05,AU,1596853643
49,tuktoyaktuk,69.45,-133.04,55.4,87,75,13.87,CA,1596853643
50,iqaluit,63.75,-68.51,51.8,62,75,8.05,CA,1596853643
51,farafangana,-22.82,47.83,66.31,85,93,16.08,MG,1596853643
52,rikitea,-23.12,-134.97,70.07,74,0,18.95,PF,1596853400
53,faanui,-16.48,-151.75,79.0,74,0,13.73,PF,1596853644
54,atuona,-9.8,-139.03,78.98,74,21,23.02,PF,1596853644
55,vaini,-21.2,-175.2,75.2,64,20,6.93,TO,1596853644
56,angoche,-16.23,39.91,71.04,74,47,15.19,MZ,1596853644
57,norman wells,65.28,-126.83,64.4,72,75,6.93,CA,1596853437
58,atar,20.52,-13.05,90.46,22,0,12.33,MR,1596853644
59,busselton,-33.65,115.33,61.0,42,74,21.0,AU,1596853644
60,tiksi,71.69,128.87,48.22,86,99,7.18,RU,1596853644
61,lokosovo,61.13,74.82,66.31,60,0,4.52,RU,1596853644
62,punta arenas,-53.15,-70.92,37.4,64,57,9.17,CL,1596853381
63,carutapera,-1.2,-46.02,76.03,85,0,6.15,BR,1596853644
64,dorado,18.46,-66.27,82.4,88,40,9.17,PR,1596853486
65,airai,-8.93,125.41,72.68,55,32,2.68,TL,1596853644
66,keflavik,64.0,-22.56,46.4,87,75,16.11,IS,1596853644
67,cape town,-33.93,18.42,45.0,93,35,4.7,ZA,1596853408
68,puerto escondido,15.85,-97.07,81.45,76,100,5.86,MX,1596853645
69,bambous virieux,-20.34,57.76,64.4,88,40,3.36,MU,1596853645
70,port elizabeth,-33.92,25.57,46.4,93,76,3.36,ZA,1596853645
71,arraial do cabo,-22.97,-42.03,70.66,77,0,20.2,BR,1596853645
72,staryy nadym,65.61,72.68,66.79,65,100,8.08,RU,1596853645
73,bull savanna,17.89,-77.59,77.05,83,21,8.01,JM,1596853645
74,kavieng,-2.57,150.8,78.3,89,100,15.95,PG,1596853645
75,kattivakkam,13.22,80.32,87.8,62,40,5.82,IN,1596853645
76,zhezkazgan,47.8,67.71,68.0,77,75,15.66,KZ,1596853645
77,codrington,-38.27,141.97,50.31,89,100,14.32,AU,1596853433
78,kudahuvadhoo,2.67,72.89,82.98,80,100,12.84,MV,1596853645
79,gunnedah,-30.98,150.25,57.2,82,75,11.41,AU,1596853645
80,komsomolskiy,40.43,71.72,80.6,42,0,4.7,UZ,1596853441
81,surt,31.21,16.59,76.14,77,0,4.97,LY,1596853645
82,mananara,-16.17,49.77,66.22,81,98,2.93,MG,1596853646
83,guerrero negro,27.98,-114.06,70.02,72,0,17.63,MX,1596853646
84,ust-kishert,57.37,57.25,55.87,92,100,15.1,RU,1596853646
85,rapid city,44.08,-103.23,75.2,44,1,10.29,US,1596853614
86,villa maria,-32.41,-63.24,54.0,76,99,1.01,AR,1596853646
87,tabory,58.52,64.55,65.79,77,30,2.64,RU,1596853646
88,leningradskiy,69.38,178.42,40.98,82,100,7.07,RU,1596853646
89,storforshei,66.4,14.52,59.0,92,90,2.93,NO,1596853646
90,arlit,18.74,7.39,82.54,64,84,13.4,NE,1596853543
91,alice springs,-23.7,133.88,55.4,50,0,9.17,AU,1596853439
92,puerto leguizamo,-0.19,-74.78,71.19,95,98,1.95,CO,1596853646
93,kruisfontein,-34.0,24.73,47.55,51,100,6.35,ZA,1596853646
94,bentiu,9.23,29.83,72.97,84,100,3.96,SS,1596853646
95,kirksville,40.19,-92.58,75.99,88,1,6.93,US,1596853419
96,jamestown,42.1,-79.24,66.99,72,1,5.82,US,1596853383
97,along,28.17,94.77,79.41,86,100,1.05,IN,1596853647
98,pisco,-13.7,-76.22,60.8,82,3,2.24,PE,1596853647
99,ganzhou,28.82,115.43,84.76,77,100,7.94,CN,1596853648
100,palmer,42.16,-72.33,75.2,64,90,6.93,US,1596853348
101,touros,-5.2,-35.46,71.6,88,0,4.7,BR,1596853648
102,nouadhibou,20.93,-17.03,71.6,83,0,20.8,MR,1596853648
103,sitka,57.05,-135.33,57.2,87,90,12.75,US,1596853648
104,labuan,5.28,115.24,87.8,70,20,3.36,MY,1596853648
105,saint-philippe,-21.36,55.77,66.2,59,20,9.17,RE,1596853438
106,bredasdorp,-34.53,20.04,35.6,93,53,5.82,ZA,1596853648
107,alofi,-19.06,-169.92,75.2,69,3,6.93,NU,1596853649
108,mahebourg,-20.41,57.7,64.4,88,40,3.36,MU,1596853649
109,cayenne,4.93,-52.33,77.0,100,25,3.36,GF,1596853649
110,ban dung,17.7,103.26,89.01,79,40,2.24,TH,1596853649
111,sinnamary,5.38,-52.95,78.84,83,16,8.23,GF,1596853649
112,carnarvon,-24.87,113.63,75.2,57,58,14.99,AU,1596853384
113,hasaki,35.73,140.83,86.0,78,75,8.05,JP,1596853649
114,chunskiy,56.08,99.63,61.09,92,100,4.09,RU,1596853649
115,ternate,0.8,127.4,82.92,74,83,7.63,ID,1596853649
116,kousseri,12.08,15.03,75.2,88,20,5.82,CM,1596853649
117,khovu-aksy,51.13,93.6,58.19,68,97,2.84,RU,1596853649
118,kanniyakumari,8.08,77.57,79.77,78,100,18.54,IN,1596853649
119,holme,56.11,10.17,62.01,82,20,4.94,DK,1596853649
120,avarua,-21.21,-159.78,77.0,83,32,5.82,CK,1596853649
121,viseu de jos,47.73,24.37,64.4,82,14,2.24,RO,1596853650
122,khandyga,62.67,135.6,78.75,30,89,1.48,RU,1596853449
123,bethanien,-26.5,17.16,48.97,43,0,8.9,NA,1596853650
124,mezen,65.85,44.24,53.02,95,94,7.56,RU,1596853650
125,yellowknife,62.46,-114.35,63.0,100,90,4.7,CA,1596853650
126,longyearbyen,78.22,15.64,48.2,87,20,2.24,SJ,1596853650
127,gravelbourg,49.88,-106.55,62.26,48,0,16.4,CA,1596853650
128,kysyl-syr,63.9,122.76,73.33,44,100,0.89,RU,1596853650
129,ust-maya,60.42,134.53,78.85,35,86,1.52,RU,1596853651
130,adre,13.47,22.2,72.84,84,100,14.47,TD,1596853651
131,chapais,49.78,-74.85,62.6,88,75,3.36,CA,1596853505
132,rakkestad,59.43,11.35,59.0,100,89,3.36,NO,1596853651
133,meghri,38.9,46.24,66.54,47,0,4.56,AM,1596853652
134,thompson,55.74,-97.86,78.8,65,75,5.82,CA,1596853403
135,boguchany,58.38,97.45,71.46,56,23,6.11,RU,1596853652
136,vestmannaeyjar,63.44,-20.27,48.06,87,90,19.06,IS,1596853652
137,college,64.86,-147.8,71.6,40,75,6.93,US,1596853533
138,sur,22.57,59.53,90.63,46,100,14.0,OM,1596853469
139,hovd,48.01,91.64,61.93,50,1,4.05,MN,1596853379
140,olafsvik,64.89,-23.71,47.05,84,94,11.05,IS,1596853652
141,souillac,-20.52,57.52,64.4,88,40,3.36,MU,1596853652
142,paamiut,61.99,-49.67,42.93,96,100,5.86,GL,1596853652
143,ancud,-41.87,-73.82,50.0,100,90,11.41,CL,1596853653
144,lappeenranta,61.06,28.19,57.2,100,27,1.12,FI,1596853449
145,ishigaki,24.34,124.16,87.8,79,40,5.82,JP,1596853653
146,katsuura,35.13,140.3,86.0,75,81,5.99,JP,1596853423
147,panaba,21.28,-88.27,79.14,85,96,9.35,MX,1596853653
148,ishurdi,24.13,89.08,84.07,83,85,6.85,BD,1596853653
149,namibe,-15.2,12.15,62.01,89,1,3.18,AO,1596853465
150,lerwick,60.15,-1.15,53.6,87,77,12.75,GB,1596853653
151,okha,53.57,142.95,62.46,61,0,4.52,RU,1596853653
152,lompoc,34.64,-120.46,66.2,68,3,13.87,US,1596853385
153,cherskiy,68.75,161.3,48.72,90,100,8.63,RU,1596853653
154,new norfolk,-42.78,147.06,52.0,70,14,1.01,AU,1596853653
155,banyo,6.75,11.82,63.7,94,100,0.72,CM,1596853653
156,qaanaaq,77.48,-69.36,36.72,79,0,4.45,GL,1596853401
157,griffith,41.53,-87.42,73.0,72,1,3.36,US,1596853654
158,agadir,30.42,-9.6,69.8,88,0,4.7,MA,1596853369
159,townsville,-19.25,146.8,80.6,30,73,19.46,AU,1596853654
160,luderitz,-26.65,15.16,59.0,24,0,9.17,NA,1596853654
161,kaitangata,-46.28,169.85,51.01,60,51,11.01,NZ,1596853654
162,mogadishu,2.04,45.34,75.61,72,7,19.6,SO,1596853654
163,ostrovnoy,68.05,39.51,51.21,92,100,2.57,RU,1596853654
164,klaksvik,62.23,-6.59,51.8,93,23,3.36,FO,1596853654
165,esperance,-33.87,121.9,50.0,93,35,9.17,AU,1596853654
166,khabary,53.63,79.53,67.73,73,0,6.02,RU,1596853654
167,nidderau,50.25,8.9,71.01,61,0,2.51,DE,1596853654
168,san patricio,19.22,-104.7,81.68,84,98,5.17,MX,1596853655
169,ilulissat,69.22,-51.1,39.2,80,100,3.36,GL,1596853655
170,isangel,-19.55,169.27,78.8,57,75,9.17,VU,1596853655
171,kytmanovo,53.46,85.45,65.77,73,0,5.79,RU,1596853655
172,tucumcari,35.17,-103.72,86.0,35,1,16.11,US,1596853582
173,aksu,41.12,80.26,86.99,23,0,5.64,CN,1596853655
174,coihaique,-45.58,-72.07,37.4,86,100,3.36,CL,1596853589
175,krasnoselkup,65.7,82.47,70.18,62,84,6.06,RU,1596853655
176,mitsamiouli,-11.38,43.28,75.09,71,6,19.17,KM,1596853655
177,viedma,-40.81,-63.0,45.0,77,100,1.99,AR,1596853452
178,tolaga bay,-38.37,178.3,51.87,86,67,22.39,NZ,1596853544
179,natal,-5.79,-35.21,73.4,83,0,10.29,BR,1596853610
180,saiha,22.48,92.97,72.84,94,100,1.25,IN,1596853656
181,lorengau,-2.02,147.27,85.01,70,100,5.97,PG,1596853656
182,caba,16.43,120.34,84.69,71,35,10.71,PH,1596853656
183,saint anthony,45.02,-93.22,78.8,65,1,10.29,US,1596853656
184,synya,65.37,58.04,52.16,78,100,6.02,RU,1596853656
185,mangai,-4.05,19.53,74.16,62,3,1.43,CD,1596853656
186,yumen,40.28,97.2,84.88,15,8,9.64,CN,1596853656
187,opuwo,-18.06,13.84,48.24,60,0,2.39,NA,1596853656
188,paita,-5.09,-81.11,62.83,79,0,12.86,PE,1596853656
189,dingle,11.0,122.67,82.92,82,94,11.3,PH,1596853448
190,mayor pablo lagerenza,-19.93,-60.77,73.63,31,0,5.21,PY,1596853656
191,borogontsy,62.67,131.17,77.45,34,99,2.39,RU,1596853656
192,narsaq,60.92,-46.05,44.6,87,100,5.82,GL,1596853454
193,chirongui,-12.93,45.15,75.2,73,46,18.34,YT,1596853656
194,plettenberg bay,-34.05,23.37,55.58,38,100,5.12,ZA,1596853657
195,sioux lookout,50.1,-91.92,75.2,73,40,6.93,CA,1596853657
196,yangjiang,21.85,111.97,86.0,75,28,3.31,CN,1596853657
197,sao joao da barra,-21.64,-41.05,69.87,78,0,11.36,BR,1596853657
198,warwick,41.7,-71.42,71.01,73,1,6.93,US,1596853657
199,dunedin,-45.87,170.5,48.0,64,35,15.01,NZ,1596853657
200,shahe,39.27,113.55,71.1,72,70,3.96,CN,1596853657
201,kibala,9.11,18.35,70.99,95,84,3.49,TD,1596853586
202,lata,40.16,-8.33,64.99,99,67,1.39,PT,1596853607
203,laguna,38.42,-121.42,90.0,29,1,6.93,US,1596853657
204,gat,31.61,34.76,78.01,50,45,5.73,IL,1596853403
205,barrow,71.29,-156.79,41.0,86,90,12.75,US,1596853657
206,ulladulla,-35.35,150.47,55.99,100,90,21.92,AU,1596853657
207,san cristobal,7.77,-72.22,66.34,91,87,4.03,VE,1596853658
208,talnakh,69.49,88.4,53.6,76,75,15.66,RU,1596853658
209,yeppoon,-23.13,150.73,77.0,57,90,8.05,AU,1596853658
210,nagato,34.38,131.2,84.2,88,75,11.41,JP,1596853658
211,khor,47.89,134.95,63.9,75,60,3.74,RU,1596853658
212,saint-augustin,51.23,-58.65,67.82,55,0,5.79,CA,1596853561
213,mago,53.25,140.18,69.17,43,0,4.74,RU,1596853658
214,pangody,65.85,74.49,67.55,60,97,5.1,RU,1596853658
215,georgetown,5.41,100.34,86.0,83,20,4.7,MY,1596853658
216,victoria,22.29,114.16,91.0,62,97,10.0,HK,1596853456
217,paso de carrasco,-34.86,-56.05,52.0,93,90,8.05,UY,1596853658
218,tungor,53.38,142.96,64.35,56,0,5.44,RU,1596853658
219,saint george,37.1,-113.58,96.8,7,1,9.17,US,1596853658
220,wanaka,-44.7,169.15,41.63,66,13,2.82,NZ,1596853658
221,hargeysa,9.56,44.06,68.32,71,96,22.62,SO,1596853658
222,russell,32.35,-85.2,84.2,83,1,3.36,US,1596853658
223,ribeira grande,38.52,-28.7,69.57,75,17,12.8,PT,1596853659
224,coquimbo,-29.95,-71.34,51.8,87,0,1.12,CL,1596853659
225,palana,59.12,159.97,55.35,79,2,14.25,RU,1596853659
226,camacha,33.08,-16.33,71.6,88,20,5.82,PT,1596853659
227,kilrush,52.64,-9.48,51.8,93,20,1.12,IE,1596853659
228,waipawa,-41.41,175.52,50.0,61,86,28.86,NZ,1596853659
229,chake chake,-5.25,39.77,73.83,83,19,12.06,TZ,1596853659
230,namatanai,-3.67,152.43,75.67,91,100,2.24,PG,1596853659
231,hamilton,39.18,-84.53,72.0,82,40,5.41,US,1596853504
232,velikiy novgorod,58.52,31.28,57.94,96,0,3.83,RU,1596853362
233,upernavik,72.79,-56.15,40.55,70,100,7.72,GL,1596853659
234,yenagoa,4.92,6.26,72.36,90,1,3.74,NG,1596853659
235,saskylakh,71.92,114.08,58.33,87,100,10.67,RU,1596853437
236,trincomalee,8.57,81.23,81.9,75,100,15.5,LK,1596853659
237,timizart,36.8,4.27,69.82,39,0,3.71,DZ,1596853660
238,aripuana,-9.17,-60.63,75.27,50,14,1.9,BR,1596853660
239,korla,41.76,86.15,86.76,21,72,10.92,CN,1596853660
240,neryungri,56.67,124.65,64.15,51,31,10.49,RU,1596853445
241,cabedelo,-6.98,-34.83,71.6,94,20,6.93,BR,1596853660
242,oranjemund,-28.55,16.43,62.17,30,0,11.5,NA,1596853410
243,nisia floresta,-6.09,-35.21,73.4,83,0,10.29,BR,1596853421
244,bandarbeyla,9.49,50.81,78.39,64,61,33.04,SO,1596853660
245,svirstroy,60.8,33.72,55.85,96,100,2.93,RU,1596853660
246,clyde river,70.47,-68.59,39.2,86,90,20.8,CA,1596853449
247,windhoek,-22.56,17.08,53.6,27,0,5.82,NA,1596853660
248,gubkinskiy,64.43,76.5,69.01,57,1,10.09,RU,1596853660
249,lagoa,39.05,-27.98,68.23,70,34,10.96,PT,1596853660
250,hualmay,-11.1,-77.61,60.08,81,13,8.14,PE,1596853660
251,salalah,17.02,54.09,77.0,94,90,3.36,OM,1596853661
252,abnub,27.27,31.15,77.0,44,47,12.75,EG,1596853661
253,piet retief,-27.01,30.81,38.77,87,53,2.95,ZA,1596853661
254,hobyo,5.35,48.53,75.54,74,25,26.53,SO,1596853661
255,ugoofaaru,5.67,73.0,82.72,74,100,13.65,MV,1596853661
256,fairbanks,64.84,-147.72,71.6,35,40,9.17,US,1596853650
257,vila franca do campo,37.72,-25.43,69.8,83,75,10.29,PT,1596853661
258,xining,36.62,101.77,61.29,72,84,2.13,CN,1596853661
259,urumqi,43.8,87.6,86.0,30,0,4.47,CN,1596853661
260,taoudenni,22.68,-3.98,100.54,10,16,9.44,ML,1596853661
261,cairns,-16.92,145.77,81.0,74,75,8.05,AU,1596853603
262,fairlie,55.76,-4.86,48.99,92,0,4.63,GB,1596853661
263,aklavik,68.22,-135.01,57.2,82,90,10.29,CA,1596853661
264,edd,13.93,41.69,88.32,65,100,3.02,ER,1596853661
265,lakes entrance,-37.88,147.98,55.0,92,100,7.0,AU,1596853661
266,port hardy,50.7,-127.42,57.2,100,90,4.7,CA,1596853568
267,eirunepe,-6.66,-69.87,76.64,60,88,1.1,BR,1596853662
268,fort nelson,58.81,-122.7,69.8,43,40,3.36,CA,1596853574
269,kabompo,-13.59,24.2,54.34,42,0,5.19,ZM,1596853662
270,wanning,18.8,110.4,87.3,65,86,1.19,CN,1596853662
271,terrace,54.52,-128.6,57.2,82,75,18.34,CA,1596853467
272,hirara,24.8,125.28,89.6,66,40,10.29,JP,1596853662
273,sabang,5.89,95.32,84.69,71,100,13.29,ID,1596853662
274,takoradi,4.88,-1.76,72.59,86,30,9.08,GH,1596853662
275,hatillo,18.49,-66.83,78.01,95,100,1.01,PR,1596853662
276,yaan,7.38,8.57,69.82,93,98,5.59,NG,1596853662
277,strezhevoy,60.73,77.59,68.0,64,22,4.47,RU,1596853662
278,caravelas,-17.71,-39.25,69.69,80,24,6.64,BR,1596853662
279,matara,5.95,80.54,79.32,83,100,11.1,LK,1596853663
280,northam,51.03,-4.22,62.01,99,2,1.01,GB,1596853663
281,coahuayana,18.73,-103.68,77.0,88,75,2.21,MX,1596853663
282,rocha,-34.48,-54.33,54.21,97,100,5.17,UY,1596853470
283,cananeia,-25.01,-47.93,62.42,91,18,2.93,BR,1596853663
284,amurrio,43.05,-3.0,72.0,94,0,4.7,ES,1596853663
285,ocean springs,30.41,-88.83,84.2,66,1,6.64,US,1596853663
286,vila velha,-20.33,-40.29,66.2,93,40,2.24,BR,1596853591
287,launceston,-41.45,147.17,53.01,66,40,12.75,AU,1596853412
288,aberdeen,57.14,-2.1,53.6,87,100,3.36,GB,1596853663
289,nuuk,64.18,-51.72,42.8,100,83,5.82,GL,1596853663
290,atambua,-9.11,124.89,82.98,53,93,1.07,ID,1596853663
291,tooele,40.53,-112.3,84.0,42,1,3.36,US,1596853663
292,kamien pomorski,53.97,14.77,73.4,60,93,9.17,PL,1596853663
293,trairi,-3.28,-39.27,77.74,80,0,11.5,BR,1596853597
294,letpadan,17.78,95.75,79.3,89,100,6.85,MM,1596853663
295,chumikan,54.72,135.31,67.95,48,25,13.15,RU,1596853664
296,peniche,39.36,-9.38,68.0,90,19,7.0,PT,1596853664
297,wichita falls,33.91,-98.49,93.2,36,1,17.22,US,1596853664
298,dalvik,65.97,-18.53,48.2,81,90,5.82,IS,1596853664
299,providencia,28.72,-111.58,91.99,59,0,10.0,MX,1596853664
300,sinop,41.77,34.87,67.78,50,0,4.0,TR,1596853664
301,kulhudhuffushi,6.62,73.07,82.49,75,100,15.99,MV,1596853664
302,springbok,-29.66,17.89,47.5,44,4,11.81,ZA,1596853664
303,port macquarie,-31.43,152.92,63.0,83,30,3.87,AU,1596853664
304,adrar,20.5,-10.07,96.17,15,60,16.35,MR,1596853605
305,nizhniy kuranakh,58.84,125.49,69.22,52,100,2.04,RU,1596853664
306,brae,60.4,-1.35,53.6,87,71,12.75,GB,1596853665
307,bilibino,68.05,166.44,51.44,66,100,5.26,RU,1596853665
308,sorland,67.67,12.69,60.1,77,86,7.81,NO,1596853665
309,vostok,46.49,135.88,58.91,88,100,2.28,RU,1596853665
310,marck,50.95,1.94,72.0,70,0,7.7,FR,1596853665
311,veraval,20.9,70.37,83.37,80,100,22.03,IN,1596853572
312,ngunguru,-35.62,174.5,59.0,3,82,11.99,NZ,1596853665
313,amahai,-3.33,128.92,78.82,84,93,3.38,ID,1596853665
314,kralendijk,12.15,-68.27,84.2,79,34,18.34,BQ,1596853665
315,qasigiannguit,68.82,-51.19,39.2,80,100,3.36,GL,1596853665
316,port blair,11.67,92.75,80.44,86,100,12.71,IN,1596853665
317,kenai,60.55,-151.26,60.01,67,75,9.17,US,1596853422
318,manta,-0.95,-80.73,69.8,83,75,5.82,EC,1596853665
319,jacqueville,5.21,-4.41,73.4,94,20,8.05,CI,1596853665
320,allende,25.28,-100.02,84.2,62,40,11.41,MX,1596853569
321,ilebo,-4.32,20.58,74.84,68,19,1.9,CD,1596853666
322,tundla,27.2,78.28,84.2,89,20,2.24,IN,1596853666
323,agua branca,-5.89,-42.64,75.11,46,0,6.2,BR,1596853369
324,mabaruma,8.2,-59.78,74.7,98,100,2.24,GY,1596853666
325,murray bridge,-35.12,139.27,48.99,100,100,3.0,AU,1596853666
326,benguela,-12.58,13.41,67.21,87,5,5.01,AO,1596853666
327,furano,43.28,142.47,68.0,82,75,3.36,JP,1596853666
328,tecoanapa,16.52,-98.75,79.02,87,100,6.8,MX,1596853666
329,qui nhon,13.77,109.23,87.53,58,30,1.77,VN,1596853666
330,wilmington,34.23,-77.94,80.6,78,1,5.88,US,1596853538
331,hay river,60.82,-115.8,64.4,100,75,6.93,CA,1596853588
332,jiutai,44.15,125.83,80.6,57,5,8.95,CN,1596853666
333,henties bay,-22.12,14.28,55.0,90,0,3.0,NA,1596853666
334,cidreira,-30.18,-50.21,59.07,82,0,5.19,BR,1596853527
335,newport,51.59,-3.0,64.99,90,0,6.08,GB,1596853667
336,baykit,61.67,96.37,70.18,53,88,2.53,RU,1596853668
337,omsukchan,62.53,155.8,70.27,39,23,1.23,RU,1596853668
338,limenaria,40.63,24.58,82.0,54,0,1.01,GR,1596853668
339,grand-santi,4.25,-54.38,73.56,96,100,2.39,GF,1596853668
340,tabou,4.42,-7.35,74.26,79,99,9.46,CI,1596853449
341,derzhavinsk,51.1,66.32,70.07,71,63,16.28,KZ,1596853438
342,haines junction,60.75,-137.51,58.62,53,29,11.63,CA,1596853668
343,suicheng,33.9,117.93,78.01,52,97,5.99,CN,1596853668
344,buchanan,5.88,-10.05,75.27,82,99,11.43,LR,1596853668
345,morro bay,35.37,-120.85,64.99,87,24,4.0,US,1596853623
346,hit,33.64,42.83,87.15,16,0,18.39,IQ,1596853668
347,tongliao,43.61,122.27,88.23,39,95,15.14,CN,1596853668
348,canmore,51.08,-115.35,64.99,41,1,18.34,CA,1596853669
349,kodiak,57.79,-152.41,57.2,82,90,1.54,US,1596853589
350,whitehorse,60.72,-135.05,57.2,58,75,9.17,CA,1596853488
351,lewistown,40.6,-77.57,68.0,100,75,1.45,US,1596853382
352,solnechnyy,50.72,136.63,69.6,48,5,2.95,RU,1596853669
353,lubbock,33.6,-101.83,91.4,27,75,11.41,US,1596853493
354,karlskrona,56.16,15.59,60.8,93,35,5.82,SE,1596853669
355,severo-yeniseyskiy,60.37,93.04,70.61,49,0,2.55,RU,1596853669
356,liverpool,53.41,-2.98,66.2,82,33,6.93,GB,1596853494
357,moron,-34.65,-58.62,55.0,98,99,7.0,AR,1596853669
358,bonfim,3.08,-59.95,78.46,80,100,4.56,BR,1596853670
359,sakakah,29.97,40.21,87.8,23,0,16.11,SA,1596853670
360,severnoye,56.35,78.36,67.08,78,0,3.94,RU,1596853670
361,mahajanga,-15.72,46.32,66.27,84,0,6.22,MG,1596853670
362,kalabo,-14.97,22.68,57.49,37,0,5.55,ZM,1596853670
363,omboue,-1.57,9.26,72.95,82,31,4.83,GA,1596853670
364,soyo,-6.13,12.37,71.11,88,23,8.59,AO,1596853670
365,colombo,6.93,79.85,80.6,83,40,4.7,LK,1596853664
366,uinskoye,56.88,56.58,55.83,91,100,14.05,RU,1596853670
367,hambantota,6.12,81.12,80.6,83,75,10.29,LK,1596853670
368,katherine,-14.47,132.27,84.2,12,7,12.75,AU,1596853670
369,atasu,48.68,71.64,73.54,47,90,11.68,KZ,1596853671
370,itanhandu,-22.3,-44.93,57.0,69,0,0.45,BR,1596853671
371,arroio grande,-32.24,-53.09,55.0,6,100,4.79,BR,1596853671
372,da nang,16.07,108.22,91.4,59,20,2.24,VN,1596853671
373,caucaia,-3.74,-38.65,78.8,78,40,8.05,BR,1596853671
374,limoux,42.92,2.17,69.01,94,0,3.06,FR,1596853603
375,san jose,37.34,-121.89,80.01,50,20,14.99,US,1596853557
376,ayan,56.45,138.17,67.57,52,58,7.72,RU,1596853671
377,bundaberg,-24.85,152.35,70.0,88,90,5.82,AU,1596853671
378,kihei,20.79,-156.47,89.6,52,40,25.28,US,1596853671
379,tura,25.52,90.22,79.3,93,100,4.59,IN,1596853671
380,karratha,-20.74,116.85,70.05,37,0,22.44,AU,1596853539
381,homer,59.64,-151.55,57.0,87,75,6.93,US,1596853430
382,walcz,53.28,16.47,69.01,72,88,5.21,PL,1596853672
383,jumla,29.27,82.18,68.76,63,1,1.72,NP,1596853575
384,talcher,20.95,85.22,83.57,73,100,5.06,IN,1596853673
385,acapulco,16.86,-99.89,84.2,74,75,3.36,MX,1596853673
386,baherden,38.44,57.43,77.85,39,0,3.8,TM,1596853674
387,nsunga,-1.14,31.39,60.84,88,20,0.69,TZ,1596853674
388,dubrajpur,23.8,87.38,86.41,70,100,5.46,IN,1596853674
389,yei,4.09,30.68,65.39,96,98,2.1,SS,1596853674
390,heihe,50.24,127.49,69.8,73,40,11.18,CN,1596853674
391,nurota,40.56,65.69,75.2,38,0,4.7,UZ,1596853674
392,lagos,6.58,3.75,71.6,94,20,4.54,NG,1596853375
393,lavrentiya,65.58,-171.0,46.45,68,51,8.57,RU,1596853674
394,flin flon,54.77,-101.86,73.26,63,83,10.29,CA,1596853674
395,singosari,-7.89,112.67,81.91,52,100,2.19,ID,1596853674
396,gusinoye ozero,51.11,106.26,60.73,75,100,4.54,RU,1596853674
397,aktau,43.65,51.2,71.6,88,0,8.95,KZ,1596853675
398,beloha,-25.17,45.05,56.89,78,0,4.79,MG,1596853675
399,saint-joseph,-21.37,55.62,66.2,59,20,9.17,RE,1596853675
400,latung,5.5,120.88,83.34,82,75,14.52,PH,1596853675
401,magapit,18.11,121.68,87.84,65,40,1.83,PH,1596853675
402,trimbak,19.93,73.55,69.84,100,99,15.28,IN,1596853675
403,husavik,66.04,-17.34,48.2,81,90,5.82,IS,1596853434
404,itarema,-2.92,-39.92,77.85,80,0,14.7,BR,1596853675
405,zhigansk,66.77,123.37,63.21,49,83,14.83,RU,1596853675
406,salinopolis,-0.61,-47.36,79.57,81,3,10.6,BR,1596853675
407,chase,50.82,-119.69,66.0,57,100,5.17,CA,1596853489
408,mount gambier,-37.83,140.77,53.6,76,90,19.46,AU,1596853675
409,grand-lahou,5.14,-5.02,73.08,87,100,8.01,CI,1596853676
410,antofagasta,-23.65,-70.4,59.0,77,90,5.82,CL,1596853505
411,helsingor,56.04,12.61,60.01,77,57,5.82,DK,1596853676
412,maltahohe,-24.83,16.98,43.21,57,0,5.75,NA,1596853676
413,prince albert,53.2,-105.77,62.6,63,40,12.75,CA,1596853436
414,kapit,2.02,112.93,89.71,58,3,1.48,MY,1596853676
415,raudeberg,61.99,5.14,64.99,88,100,11.41,NO,1596853676
416,pachino,36.72,15.09,68.0,78,0,8.28,IT,1596853676
417,newala,-10.94,39.28,57.38,100,0,1.95,TZ,1596853676
418,vitim,59.45,112.56,75.83,45,0,9.4,RU,1596853676
419,istanbul,41.04,28.98,77.0,83,75,8.05,TR,1596853457
420,araouane,18.9,-3.53,96.3,28,16,13.94,ML,1596853676
421,charlottesville,38.03,-78.48,75.2,88,1,1.68,US,1596853410
422,sarkand,45.41,79.92,75.25,25,2,2.75,KZ,1596853677
423,svetlaya,46.54,138.33,61.52,83,100,6.67,RU,1596853677
424,acarau,-2.89,-40.12,77.67,80,0,15.46,BR,1596853677
425,isabela,6.71,121.97,86.0,74,40,5.82,PH,1596853677
426,koson,39.04,65.58,75.2,41,0,9.17,UZ,1596853677
427,kavaratti,10.57,72.64,81.93,79,100,21.18,IN,1596853438
428,kupino,54.37,77.3,68.41,71,0,5.66,RU,1596853677
429,ust-tsilma,65.44,52.15,52.74,89,100,4.0,RU,1596853639
430,pringsewu,-5.36,104.97,82.53,77,47,0.81,ID,1596853677
431,cabo san lucas,22.89,-109.91,87.01,69,5,11.41,MX,1596853677
432,kita,13.03,-9.49,74.3,96,100,4.07,ML,1596853677
433,pabrade,55.0,25.78,64.4,77,28,1.12,LT,1596853678
434,sobolevo,54.43,31.9,62.08,87,93,2.98,RU,1596853678
435,rossland,49.08,-117.8,66.0,65,23,1.99,CA,1596853678
436,nanfeng,23.74,111.8,90.01,61,100,1.79,CN,1596853678
437,bouar,5.93,15.6,63.59,98,97,2.95,CF,1596853678
438,mao,39.89,4.27,68.0,88,0,2.46,ES,1596853678
439,venado tuerto,-33.75,-61.97,53.01,80,100,5.99,AR,1596853678
440,boa viagem,-5.13,-39.73,69.87,70,1,3.04,BR,1596853678
441,birin,26.89,88.07,82.4,88,75,1.12,NP,1596853678
442,storsteinnes,69.24,19.23,51.8,100,75,8.05,NO,1596853678
443,ust-nera,64.57,143.2,72.63,32,100,9.28,RU,1596853428
444,walvis bay,-22.96,14.51,55.4,87,0,8.05,NA,1596853678
445,sao filipe,14.9,-24.5,77.88,88,41,11.18,CV,1596853679
446,najran,17.49,44.13,80.6,44,100,9.17,SA,1596853679
447,shumskiy,54.83,99.13,63.66,85,51,7.29,RU,1596853679
448,wahpeton,46.27,-96.61,77.0,88,40,5.82,US,1596853679
449,romitan,39.93,64.38,75.2,47,0,4.7,UZ,1596853679
450,asfi,32.3,-9.24,70.32,89,1,12.53,MA,1596853679
451,borgo san dalmazzo,44.33,7.49,62.6,100,0,4.7,IT,1596853679
452,kozhva,65.11,57.05,52.59,77,99,7.16,RU,1596853679
453,thunder bay,48.4,-89.32,68.0,88,90,5.82,CA,1596853679
454,wiarton,44.74,-81.13,62.01,93,5,3.36,CA,1596853679
455,muros,42.78,-9.06,66.99,79,2,5.01,ES,1596853679
456,kiruna,67.86,20.23,50.0,87,13,4.7,SE,1596853564
457,ust-kut,56.79,105.77,74.26,46,0,7.29,RU,1596853392
458,buzmeyin,38.05,58.21,77.0,41,20,9.17,TM,1596853680
459,quatre cocos,-20.21,57.76,64.4,88,40,3.36,MU,1596853680
460,waddan,29.16,16.14,73.45,69,0,4.36,LY,1596853680
461,cherdyn,60.4,56.48,54.75,86,64,7.18,RU,1596853680
462,kloulklubed,7.04,134.26,84.2,74,90,15.21,PW,1596853680
463,noumea,-22.28,166.46,78.8,54,1,8.05,NC,1596853680
464,cockburn town,21.46,-71.14,82.44,78,0,16.69,TC,1596853680
465,pamekasan,-7.16,113.47,82.94,61,100,6.91,ID,1596853680
466,worland,44.02,-107.96,84.2,23,1,6.93,US,1596853681
467,shumyachi,53.86,32.42,59.43,91,68,3.36,RU,1596853681
468,marolambo,-20.05,48.12,62.08,90,98,2.04,MG,1596853682
469,alice town,25.72,-79.3,84.81,71,0,9.44,BS,1596853682
470,provideniya,64.38,-173.3,51.35,58,66,6.85,RU,1596853418
471,mandalgovi,45.76,106.27,61.05,51,73,8.55,MN,1596853682
472,ampanihy,-24.7,44.75,55.98,76,0,5.73,MG,1596853682
473,vilcun,-38.65,-72.23,39.99,77,52,1.5,CL,1596853682
474,chuy,-33.7,-53.46,56.07,97,100,6.44,UY,1596853419
475,santa cruz,-17.8,-63.17,69.8,77,0,2.24,BO,1596853386
476,nome,64.5,-165.41,59.0,71,90,12.75,US,1596853682
477,hendek,40.8,30.75,66.2,100,40,2.89,TR,1596853682
478,milkovo,54.72,158.62,67.03,62,100,2.48,RU,1596853682
479,pochutla,15.74,-96.47,80.01,85,100,5.23,MX,1596853682
480,torbay,47.67,-52.73,66.2,77,75,10.29,CA,1596853411
481,dali,25.7,100.18,67.05,84,100,2.66,CN,1596853683
482,severo-kurilsk,50.68,156.12,53.47,93,100,24.52,RU,1596853407
483,krasnyy chikoy,50.36,108.75,56.03,87,76,4.5,RU,1596853683
484,deputatskiy,69.3,139.9,58.26,53,19,15.55,RU,1596853683
485,zhigalovo,54.81,105.16,62.01,87,99,2.44,RU,1596853683
486,talcahuano,-36.72,-73.12,46.4,100,89,4.7,CL,1596853683
487,toora-khem,52.47,96.11,53.78,86,100,2.26,RU,1596853683
488,qaqortoq,60.72,-46.03,44.6,87,100,5.82,GL,1596853683
489,chippewa falls,44.94,-91.39,75.2,60,1,11.41,US,1596853719
490,kafanchan,9.58,8.3,65.3,97,99,2.1,NG,1596853683
491,gamba,-2.65,10.0,73.42,81,100,5.39,GA,1596853459
492,westport,41.14,-73.36,73.4,78,75,5.82,US,1596853683
493,bengkulu,-3.8,102.27,82.72,75,53,1.92,ID,1596853437
494,yevpatoriya,45.2,33.36,77.27,60,0,15.05,UA,1596853683
495,guiratinga,-16.35,-53.76,68.61,39,0,4.7,BR,1596853684
496,mangrol,21.12,70.12,83.43,80,100,22.75,IN,1596853684
497,broken hill,-31.95,141.43,44.6,87,32,12.75,AU,1596853684
498,rivers,50.03,-100.24,75.2,83,75,6.93,CA,1596853684
499,tupik,54.43,119.93,54.57,92,100,4.32,RU,1596853684
500,bastrop,32.76,-91.87,77.0,94,1,4.7,US,1596853684
501,kintampo,8.06,-1.73,68.92,90,100,5.3,GH,1596853684
502,enkoping,59.64,17.08,62.6,82,38,5.06,SE,1596853684
503,la ronge,55.1,-105.28,62.6,88,90,10.29,CA,1596853684
504,petropavlovsk-kamchatskiy,53.05,158.65,53.6,100,90,8.95,RU,1596853684
505,ranong,9.97,98.63,82.4,94,75,8.81,TH,1596853684
506,uromi,6.7,6.33,65.82,100,93,4.09,NG,1596853684
507,outjo,-20.12,16.15,54.59,36,0,8.5,NA,1596853684
508,gulbarga,17.33,76.83,76.53,85,58,12.57,IN,1596853685
509,berlevag,70.86,29.09,51.17,88,80,9.28,NO,1596853685
510,rosarito,32.33,-117.03,71.01,73,5,8.05,MX,1596853685
511,palasbari,26.14,91.55,86.0,100,75,3.51,IN,1596853685
512,sistranda,63.73,8.83,57.2,100,75,5.82,NO,1596853685
513,safaga,26.73,33.94,87.8,35,93,9.17,EG,1596853685
514,quang ngai,15.12,108.8,88.18,62,40,1.77,VN,1596853631
515,verkhnyaya inta,65.98,60.31,52.88,80,100,7.72,RU,1596853685
516,hofn,64.25,-15.21,51.67,87,19,10.6,IS,1596853685
517,puerto asis,0.51,-76.5,72.55,79,100,1.28,CO,1596853685
518,daru,-9.08,143.21,81.27,80,48,8.5,PG,1596853685
519,otjimbingwe,-22.35,16.13,52.63,40,0,5.55,NA,1596853685
520,igarka,67.47,86.58,60.19,71,100,4.34,RU,1596853686
521,karatuzskoye,53.61,92.87,60.51,87,96,3.65,RU,1596853686
522,shache,38.42,77.24,88.77,14,0,3.09,CN,1596853576
523,naryan-mar,67.67,53.09,50.77,91,99,7.96,RU,1596853686
524,apollonia,36.97,24.72,73.99,83,0,4.7,GR,1596853686
525,verkh-usugli,52.7,115.17,55.2,99,100,2.73,RU,1596853686
526,bang saphan,11.21,99.51,80.6,88,75,5.82,TH,1596853686
527,lincoln,40.8,-96.67,80.6,74,1,14.99,US,1596853686
528,yemelyanovo,56.17,92.68,66.2,88,98,11.18,RU,1596853686
529,xinyu,27.8,114.93,84.38,77,100,9.82,CN,1596853686
530,curup,-3.47,102.53,78.62,67,15,2.06,ID,1596853687
531,denpasar,-8.65,115.22,80.6,94,20,13.87,ID,1596853656
532,tautira,-17.73,-149.15,82.4,61,75,14.99,PF,1596853687
533,ust-omchug,61.15,149.63,73.83,23,0,5.68,RU,1596853687
534,grootfontein,-19.57,18.12,43.9,59,0,3.83,NA,1596853687
535,auki,-8.77,160.7,86.72,64,100,8.19,SB,1596853687
536,siilinjarvi,63.08,27.67,60.8,93,35,2.24,FI,1596853687
537,ijui,-28.39,-53.91,60.3,80,6,6.2,BR,1596853687
538,huarmey,-10.07,-78.15,59.61,86,0,6.22,PE,1596853687
539,balikpapan,-1.27,116.83,84.2,83,40,5.82,ID,1596853687
540,ketchikan,55.34,-131.65,59.0,82,90,9.17,US,1596853687
541,mehamn,71.04,27.85,50.7,90,56,9.44,NO,1596853687
542,carmen de apicala,4.15,-74.72,80.38,51,82,1.54,CO,1596853688
543,uyuni,-20.46,-66.83,43.74,49,0,2.73,BO,1596853688
544,tsiroanomandidy,-18.77,46.03,56.91,95,2,2.77,MG,1596853688
545,shieli,44.17,66.75,76.69,31,0,10.45,KZ,1596853688
546,turayf,31.67,38.66,77.0,36,0,11.41,SA,1596853688
547,jamame,0.07,42.75,73.99,72,5,13.04,SO,1596853688
548,poum,-20.23,164.02,70.95,70,73,5.73,NC,1596853688
549,ponta do sol,32.67,-17.1,71.6,78,20,2.24,PT,1596853688
550,kaeo,-35.1,173.78,59.0,3,54,11.99,NZ,1596853688
551,knysna,-34.04,23.05,39.2,80,100,4.7,ZA,1596853688
552,bandar,2.05,99.75,85.98,57,82,1.52,ID,1596853688
553,itarantim,-15.66,-40.07,61.56,95,14,2.48,BR,1596853688
554,penzance,50.12,-5.54,61.0,100,1,11.41,GB,1596853688
555,lukovetskiy,64.3,41.92,57.2,100,20,2.24,RU,1596853689
556,makakilo city,21.35,-158.09,89.6,52,75,9.17,US,1596853468
557,fukue,32.69,128.84,84.2,89,75,14.99,JP,1596853689
558,san jacinto,33.78,-116.96,82.0,29,0,1.01,US,1596853689
559,repatriacion,-25.53,-55.95,64.06,59,62,5.14,PY,1596853689
560,ende,-8.84,121.66,83.19,52,100,3.2,ID,1596853689
561,la reforma,25.08,-108.05,87.01,71,7,4.0,MX,1596853474
562,taltal,-25.4,-70.48,55.11,79,39,1.77,CL,1596853689
563,birao,10.28,22.79,70.38,96,94,4.25,CF,1596853573
564,bonavista,48.65,-53.11,61.0,85,17,3.0,CA,1596853689
565,aykhal,66.0,111.5,64.4,68,1,2.24,RU,1596853689
566,iowa city,41.66,-91.53,75.2,69,1,10.29,US,1596853689
567,dhidhdhoo,6.88,73.1,82.45,75,100,16.89,MV,1596853466
568,san felipe,10.34,-68.74,73.0,91,66,1.48,VE,1596853689
569,taksimo,56.34,114.88,65.86,69,100,2.48,RU,1596853425
